{"ast":null,"code":"import _objectSpread from\"C:\\\\Users\\\\MEPSA-FULLSTACK\\\\Desktop\\\\workspace-release-12-2022\\\\web\\\\node_modules\\\\babel-preset-react-app\\\\node_modules\\\\@babel\\\\runtime/helpers/esm/objectSpread2\";var initialState={loggedIn:false,branch:[{id:1,name:'Puebla (Matriz)',direcction:'Puebla (Matriz): Av. 4 Poniente 1712 - A Col. Centro.',city:'Puebla, México C.P. 72000',phone:'(222) 690 67 00',email:'matriz@marathongroup.mx',lat:19.052681,lng:-98.21008,center:{lat:19.05,lng:-98.21}},{id:2,name:'Querétaro',direcction:'Querétaro: Av. Constituyentes #73 Pte. Col. El Pocito.',city:'Corregidora, Querétaro C.P. 76901',phone:'(442) 196 83 61 / (442) 189 26 38',email:'queretaro@marathongroup.mx',lat:'20.559586',lng:'-100.416315',center:{lat:'20.55',lng:'-100.41'}},{id:3,name:'Coatzacoalcos',direcction:'Coatzacoalcos: 18 de marzo #820 Esq. Mariano Abasolo Col. Ma. de la Piedad Coatzacoalcos,',city:'Veracrúz. C.P. 96400',phone:'(921) 158 88 57 / (921) 210 54 26',email:'coatzacoalcos@marathongroup.mx',lat:'18.152195',lng:'-94.432638',center:{lat:'18.15',lng:'-94.43'}},{id:4,name:'Villahermosa',direcction:'Villahermosa: Calle Anacleto Canabal No.120, Col. 1º de Mayo ',city:'Villahermosa, Tabasco. C.P. 86190',phone:'(993) 317 21 31',email:'villahermosa@marathongroup.mx',lat:'17.981898',lng:'-92.93598',center:{lat:'17.98',lng:'-92.93'}},{id:5,name:'San Luis Potosí',direcction:'Conjunto Industrial PITI-RAYO Eje 126 No. 216, interior 20, Av. Industrias, Zona Industrial Rural, Pozos.',city:'San Luis Potosí.  C.P. 78427',phone:'(222) 750 67 66',email:'sanluispotosi@marathongroup.mx',lat:22.088154,lng:-100.88413,center:{lat:'19.05',lng:'-98.21'}}],user:{id:localStorage.getItem('id'),user:localStorage.getItem('user'),name:localStorage.getItem('name'),role:localStorage.getItem('role'),BranchCD:localStorage.getItem('BranchCD'),department:localStorage.getItem('department')}};export default function(){var state=arguments.length>0&&arguments[0]!==undefined?arguments[0]:initialState;var action=arguments.length>1?arguments[1]:undefined;switch(action.type){case'LOGIN_REQUEST':return _objectSpread(_objectSpread({},state),{},{loggedIn:true});case'LOG_OUT':return _objectSpread(_objectSpread({},state),{},{loggedIn:false});default:return state;}}","map":{"version":3,"sources":["C:/Users/MEPSA-FULLSTACK/Desktop/workspace-release-12-2022/web/src/reducers/reducers.js"],"names":["initialState","loggedIn","branch","id","name","direcction","city","phone","email","lat","lng","center","user","localStorage","getItem","role","BranchCD","department","state","action","type"],"mappings":"8LAAA,GAAMA,CAAAA,YAAY,CAAG,CACnBC,QAAQ,CAAE,KADS,CAEnBC,MAAM,CAAE,CACN,CACEC,EAAE,CAAE,CADN,CAEEC,IAAI,CAAE,iBAFR,CAGEC,UAAU,CAAE,uDAHd,CAIEC,IAAI,CAAE,2BAJR,CAKEC,KAAK,CAAE,iBALT,CAMEC,KAAK,CAAE,yBANT,CAOEC,GAAG,CAAE,SAPP,CAQEC,GAAG,CAAE,CAAC,QARR,CASEC,MAAM,CAAE,CACNF,GAAG,CAAE,KADC,CAENC,GAAG,CAAE,CAAC,KAFA,CATV,CADM,CAeN,CACEP,EAAE,CAAE,CADN,CAEEC,IAAI,CAAE,WAFR,CAGEC,UAAU,CAAE,wDAHd,CAIEC,IAAI,CAAE,mCAJR,CAKEC,KAAK,CAAE,mCALT,CAMEC,KAAK,CAAE,4BANT,CAOEC,GAAG,CAAE,WAPP,CAQEC,GAAG,CAAE,aARP,CASEC,MAAM,CAAE,CACNF,GAAG,CAAE,OADC,CAENC,GAAG,CAAE,SAFC,CATV,CAfM,CA6BN,CACEP,EAAE,CAAE,CADN,CAEEC,IAAI,CAAE,eAFR,CAGEC,UAAU,CACR,2FAJJ,CAKEC,IAAI,CAAE,sBALR,CAMEC,KAAK,CAAE,mCANT,CAOEC,KAAK,CAAE,gCAPT,CAQEC,GAAG,CAAE,WARP,CASEC,GAAG,CAAE,YATP,CAUEC,MAAM,CAAE,CACNF,GAAG,CAAE,OADC,CAENC,GAAG,CAAE,QAFC,CAVV,CA7BM,CA4CN,CACEP,EAAE,CAAE,CADN,CAEEC,IAAI,CAAE,cAFR,CAGEC,UAAU,CACR,+DAJJ,CAKEC,IAAI,CAAE,mCALR,CAMEC,KAAK,CAAE,iBANT,CAOEC,KAAK,CAAE,+BAPT,CAQEC,GAAG,CAAE,WARP,CASEC,GAAG,CAAE,WATP,CAUEC,MAAM,CAAE,CACNF,GAAG,CAAE,OADC,CAENC,GAAG,CAAE,QAFC,CAVV,CA5CM,CA2DN,CACEP,EAAE,CAAE,CADN,CAEEC,IAAI,CAAE,iBAFR,CAGEC,UAAU,CACR,2GAJJ,CAKEC,IAAI,CAAE,8BALR,CAMEC,KAAK,CAAE,iBANT,CAOEC,KAAK,CAAE,gCAPT,CAQEC,GAAG,CAAE,SARP,CASEC,GAAG,CAAE,CAAC,SATR,CAUEC,MAAM,CAAE,CACNF,GAAG,CAAE,OADC,CAENC,GAAG,CAAE,QAFC,CAVV,CA3DM,CAFW,CA6EnBE,IAAI,CAAE,CACJT,EAAE,CAAEU,YAAY,CAACC,OAAb,CAAqB,IAArB,CADA,CAEJF,IAAI,CAAEC,YAAY,CAACC,OAAb,CAAqB,MAArB,CAFF,CAGJV,IAAI,CAAES,YAAY,CAACC,OAAb,CAAqB,MAArB,CAHF,CAIJC,IAAI,CAAEF,YAAY,CAACC,OAAb,CAAqB,MAArB,CAJF,CAKJE,QAAQ,CAAEH,YAAY,CAACC,OAAb,CAAqB,UAArB,CALN,CAMJG,UAAU,CAAEJ,YAAY,CAACC,OAAb,CAAqB,YAArB,CANR,CA7Ea,CAArB,CAuFA,cAAe,WAAwC,IAA9BI,CAAAA,KAA8B,2DAAtBlB,YAAsB,IAARmB,CAAAA,MAAQ,2CACrD,OAAQA,MAAM,CAACC,IAAf,EACE,IAAK,eAAL,CACE,sCACKF,KADL,MAEEjB,QAAQ,CAAE,IAFZ,GAIF,IAAK,SAAL,CACE,sCACKiB,KADL,MAEEjB,QAAQ,CAAE,KAFZ,GAIF,QACE,MAAOiB,CAAAA,KAAP,CAZJ,CAcD","sourcesContent":["const initialState = {\n  loggedIn: false,\n  branch: [\n    {\n      id: 1,\n      name: 'Puebla (Matriz)',\n      direcction: 'Puebla (Matriz): Av. 4 Poniente 1712 - A Col. Centro.',\n      city: 'Puebla, México C.P. 72000',\n      phone: '(222) 690 67 00',\n      email: 'matriz@marathongroup.mx',\n      lat: 19.052681,\n      lng: -98.21008,\n      center: {\n        lat: 19.05,\n        lng: -98.21,\n      },\n    },\n    {\n      id: 2,\n      name: 'Querétaro',\n      direcction: 'Querétaro: Av. Constituyentes #73 Pte. Col. El Pocito.',\n      city: 'Corregidora, Querétaro C.P. 76901',\n      phone: '(442) 196 83 61 / (442) 189 26 38',\n      email: 'queretaro@marathongroup.mx',\n      lat: '20.559586',\n      lng: '-100.416315',\n      center: {\n        lat: '20.55',\n        lng: '-100.41',\n      },\n    },\n    {\n      id: 3,\n      name: 'Coatzacoalcos',\n      direcction:\n        'Coatzacoalcos: 18 de marzo #820 Esq. Mariano Abasolo Col. Ma. de la Piedad Coatzacoalcos,',\n      city: 'Veracrúz. C.P. 96400',\n      phone: '(921) 158 88 57 / (921) 210 54 26',\n      email: 'coatzacoalcos@marathongroup.mx',\n      lat: '18.152195',\n      lng: '-94.432638',\n      center: {\n        lat: '18.15',\n        lng: '-94.43',\n      },\n    },\n    {\n      id: 4,\n      name: 'Villahermosa',\n      direcction:\n        'Villahermosa: Calle Anacleto Canabal No.120, Col. 1º de Mayo ',\n      city: 'Villahermosa, Tabasco. C.P. 86190',\n      phone: '(993) 317 21 31',\n      email: 'villahermosa@marathongroup.mx',\n      lat: '17.981898',\n      lng: '-92.93598',\n      center: {\n        lat: '17.98',\n        lng: '-92.93',\n      },\n    },\n    {\n      id: 5,\n      name: 'San Luis Potosí',\n      direcction:\n        'Conjunto Industrial PITI-RAYO Eje 126 No. 216, interior 20, Av. Industrias, Zona Industrial Rural, Pozos.',\n      city: 'San Luis Potosí.  C.P. 78427',\n      phone: '(222) 750 67 66',\n      email: 'sanluispotosi@marathongroup.mx',\n      lat: 22.088154,\n      lng: -100.88413,\n      center: {\n        lat: '19.05',\n        lng: '-98.21',\n      },\n    },\n  ],\n  user: {\n    id: localStorage.getItem('id'),\n    user: localStorage.getItem('user'),\n    name: localStorage.getItem('name'),\n    role: localStorage.getItem('role'),\n    BranchCD: localStorage.getItem('BranchCD'),\n    department: localStorage.getItem('department'),\n  },\n}\n\nexport default function (state = initialState, action) {\n  switch (action.type) {\n    case 'LOGIN_REQUEST':\n      return {\n        ...state,\n        loggedIn: true,\n      }\n    case 'LOG_OUT':\n      return {\n        ...state,\n        loggedIn: false,\n      }\n    default:\n      return state\n  }\n}\n"]},"metadata":{},"sourceType":"module"}